{"business_id": "f9NumwFMBDn751xgFiRbNA", "name": "The Range At Lake Norman", "address": "10913 Bailey Rd", "city": "Cornelius", "state": "NC", "postal_code": "28031", "latitude": 35.4627242, "longitude": -80.8526119, "stars": 3.5, "review_count": 36, "is_open": 1, "categories": "Active Life, Gun/Rifle Ranges, Guns & Ammo, Shopping"}
{"business_id": "Yzvjg0SayhoZgCljUJRF9Q", "name": "Carlos Santo, NMD", "address": "8880 E Via Linda, Ste 107", "city": "Scottsdale", "state": "AZ", "postal_code": "85258", "latitude": 33.5694041, "longitude": -111.8902637, "stars": 5.0, "review_count": 4, "is_open": 1, "categories": "Health & Medical, Fitness & Instruction, Yoga, Active Life, Pilates"}
{"business_id": "XNoUzKckATkOD1hP6vghZg", "name": "Felinus", "address": "3554 Rue Notre-Dame O", "city": "Montreal", "state": "QC", "postal_code": "H4C 1P4", "latitude": 45.479984, "longitude": -73.58007, "stars": 5.0, "review_count": 5, "is_open": 1, "categories": "Pets, Pet Services, Pet Groomers"}
{"business_id": "6OAZjbxqM5ol29BuHsil3w", "name": "Nevada House of Hose", "address": "1015 Sharp Cir", "city": "North Las Vegas", "state": "NV", "postal_code": "89030", "latitude": 36.2197281, "longitude": -115.1277255, "stars": 2.5, "review_count": 3, "is_open": 0, "categories": "Hardware Stores, Home Services, Building Supplies, Home & Garden, Shopping"}
{"business_id": "51M2Kk903DFYI6gnB5I6SQ", "name": "USE MY GUY SERVICES LLC", "address": "4827 E Downing Cir", "city": "Mesa", "state": "AZ", "postal_code": "85205", "latitude": 33.4280652, "longitude": -111.7266485, "stars": 4.5, "review_count": 26, "is_open": 1, "categories": "Home Services, Plumbing, Electricians, Handyman, Contractors"}
{"business_id": "cKyLV5oWZJ2NudWgqs8VZw", "name": "Oasis Auto Center - Gilbert", "address": "1720 W Elliot Rd, Ste 105", "city": "Gilbert", "state": "AZ", "postal_code": "85233", "latitude": 33.3503993, "longitude": -111.8271417, "stars": 4.5, "review_count": 38, "is_open": 1, "categories": "Auto Repair, Automotive, Oil Change Stations, Transmission Repair"}
{"business_id": "oiAlXZPIFm2nBCt0DHLu_Q", "name": "Green World Cleaners", "address": "6870 S Rainbow Blvd, Ste 117", "city": "Las Vegas", "state": "NV", "postal_code": "89118", "latitude": 36.0639767, "longitude": -115.241463, "stars": 3.5, "review_count": 81, "is_open": 1, "categories": "Dry Cleaning & Laundry, Local Services, Laundry Services"}
{"business_id": "ScYkbYNkDgCneBrD9vqhCQ", "name": "Junction Tire & Auto Service", "address": "6910 E Southern Ave", "city": "Mesa", "state": "AZ", "postal_code": "85209", "latitude": 33.3938847, "longitude": -111.6822257, "stars": 5.0, "review_count": 18, "is_open": 1, "categories": "Auto Repair, Oil Change Stations, Automotive, Tires"}
{"business_id": "pQeaRpvuhoEqudo3uymHIQ", "name": "The Empanadas House", "address": "404 E Green St", "city": "Champaign", "state": "IL", "postal_code": "61820", "latitude": 40.1104457, "longitude": -88.2330726, "stars": 4.5, "review_count": 5, "is_open": 1, "categories": "Ethnic Food, Food Trucks, Specialty Food, Imported Food, Argentine, Food, Restaurants, Empanadas"}
{"business_id": "EosRKXIGeSWFYWwpkbhNnA", "name": "Xtreme Couture", "address": "700 Kipling Avenue Etobicoke", "city": "Toronto", "state": "ON", "postal_code": "M8Z 5G3", "latitude": 43.6245394916, "longitude": -79.5291079302, "stars": 3.0, "review_count": 16, "is_open": 1, "categories": "Martial Arts, Gyms, Fitness & Instruction, Active Life"}
{"business_id": "MbZMmwo-eL0Jnm_Yb9KJrA", "name": "Chinook Landscaping and Design", "address": "", "city": "Calgary", "state": "AB", "postal_code": "T2J 2P2", "latitude": 50.9459599, "longitude": -114.0372072, "stars": 5.0, "review_count": 3, "is_open": 1, "categories": "Contractors, Landscaping, Home Services"}
{"business_id": "7Dv4_HAxsxvadEsT5fxQBg", "name": "Dependable Brakes & Exhaust", "address": "1110 Saw Mill Run Blvd", "city": "Pittsburgh", "state": "PA", "postal_code": "15226", "latitude": 40.4066674, "longitude": -80.0044502, "stars": 5.0, "review_count": 5, "is_open": 1, "categories": "Automotive, Auto Repair"}
{"business_id": "M_guz7Dj7hX0evS672wIwA", "name": "Chocolate Shoppe Ice Cream", "address": "2831 Parmenter St", "city": "Middleton", "state": "WI", "postal_code": "53562", "latitude": 43.1053100891, "longitude": -89.5101417974, "stars": 3.5, "review_count": 6, "is_open": 1, "categories": "Desserts, Food, Ice Cream & Frozen Yogurt"}
{"business_id": "JjJs3o60uQCfctDjs45cmA", "name": "Convertabath", "address": "116 N Roosevelt Ave, Bldg B, Ste 124", "city": "Chandler", "state": "AZ", "postal_code": "85226", "latitude": 33.3038687, "longitude": -111.9516598, "stars": 2.5, "review_count": 10, "is_open": 1, "categories": "Contractors, Home Services, Local Services"}
{"business_id": "kOICO53wbOiOJcKuCgOQ3A", "name": "Tan Las Vegas", "address": "5465 Simmons St", "city": "North Las Vegas", "state": "NV", "postal_code": "89031", "latitude": 36.263362, "longitude": -115.1798386, "stars": 3.5, "review_count": 5, "is_open": 0, "categories": "Beauty & Spas, Tanning"}
{"business_id": "rqcOZePlVvJP9EtzldIz0w", "name": "Desert Storage", "address": "2402 Atchley Dr", "city": "Henderson", "state": "NV", "postal_code": "89052", "latitude": 35.9520457, "longitude": -115.0934834, "stars": 5.0, "review_count": 5, "is_open": 0, "categories": "Local Services, Self Storage"}
{"business_id": "uZuh51lXu7tsrC8RAwkg1A", "name": "Manolo Blahnik", "address": "3131 Las Vegas Blvd", "city": "Las Vegas", "state": "NV", "postal_code": "89109", "latitude": 36.1257322229, "longitude": -115.1676084101, "stars": 4.5, "review_count": 32, "is_open": 0, "categories": "Shopping, Shoe Stores, Fashion"}
{"business_id": "nIEhsGbw0vJuYl05bzzj6Q", "name": "Bloom & Blueprint", "address": "2115 E Cedar St, Unit 3", "city": "Tempe", "state": "AZ", "postal_code": "85281", "latitude": 33.4115139, "longitude": -111.8953784, "stars": 4.5, "review_count": 7, "is_open": 1, "categories": "Event Planning & Services, Wedding Planning, Flowers & Gifts, Shopping, Party & Event Planning, Florists"}
{"business_id": "edQoeeBFUTYGwnUSE0tGPg", "name": "Car Guyz", "address": "2915 Cherry Rd", "city": "Rock Hill", "state": "SC", "postal_code": "29730", "latitude": 34.9811205, "longitude": -80.9790228, "stars": 4.5, "review_count": 10, "is_open": 1, "categories": "Auto Customization, Tires, Motorcycle Repair, Automotive, Oil Change Stations, Auto Repair"}
{"business_id": "Vwo64kNYDjKi98gUUv4-iQ", "name": "Gateway Fit Body Boot Camp", "address": "5229 S Power Rd", "city": "Mesa", "state": "AZ", "postal_code": "85212", "latitude": 33.3207235, "longitude": -111.6858686, "stars": 4.5, "review_count": 16, "is_open": 1, "categories": "Weight Loss Centers, Fitness & Instruction, Boot Camps, Health & Medical, Active Life, Gyms, Trainers, Interval Training Gyms"}
{"business_id": "CsLQLiRoafpJPJSkNX2h5Q", "name": "Middle East Deli", "address": "4508 E Independence Blvd", "city": "Charlotte", "state": "NC", "postal_code": "28205", "latitude": 35.194894, "longitude": -80.767442, "stars": 3.0, "review_count": 5, "is_open": 0, "categories": "Food, Restaurants, Grocery, Middle Eastern"}
{"business_id": "x3Po6tJGb729u_HJPY6UCA", "name": "Glendale Glitters", "address": "5850 W Glendale Avenue", "city": "Glendale", "state": "AZ", "postal_code": "85301", "latitude": 33.5389498, "longitude": -112.1851785, "stars": 2.5, "review_count": 52, "is_open": 1, "categories": "Arts & Entertainment, Festivals, Local Flavor"}
{"business_id": "idgGrA8gt699JDUPKyiHJw", "name": "North Carolina Brewers And Music Festival", "address": "4431 Neck Rd", "city": "Huntersville", "state": "NC", "postal_code": "28078", "latitude": 35.3857568, "longitude": -80.9458111, "stars": 4.0, "review_count": 3, "is_open": 1, "categories": "Festivals, Arts & Entertainment"}
{"business_id": "mKTq1T_IAplDpHUcMzOXkw", "name": "Tipsy Ryde", "address": "", "city": "Gastonia", "state": "NC", "postal_code": "28054", "latitude": 35.2528422, "longitude": -81.1526976, "stars": 3.5, "review_count": 3, "is_open": 1, "categories": "Hotels & Travel, Transportation, Taxis, Beer, Wine & Spirits, Food, Food Delivery Services"}
{"business_id": "eBEfgOPG7pvFhb2wcG9I7w", "name": "Philthy Phillys", "address": "15480 Bayview Avenue, unit D0110", "city": "Aurora", "state": "ON", "postal_code": "L4G 7J1", "latitude": 44.0109618, "longitude": -79.448677, "stars": 4.5, "review_count": 4, "is_open": 1, "categories": "Restaurants, Cheesesteaks, Poutineries"}
{"business_id": "lu7vtrp_bE9PnxWfA8g4Pg", "name": "Banzai Sushi", "address": "300 John Street", "city": "Thornhill", "state": "ON", "postal_code": "L3T 5W4", "latitude": 43.8204923, "longitude": -79.3984661, "stars": 4.5, "review_count": 7, "is_open": 1, "categories": "Japanese, Fast Food, Food Court, Restaurants"}
{"business_id": "1wWneWD_E1pBIyVpdHMaQg", "name": "Air Jordan Store", "address": "306 Yonge Street", "city": "Toronto", "state": "ON", "postal_code": "M5B 1R4", "latitude": 43.6565424, "longitude": -79.3813076, "stars": 4.0, "review_count": 9, "is_open": 1, "categories": "Shopping, Shoe Stores, Fashion"}
{"business_id": "0pOlmHVeidsh63iAWdTAfg", "name": "Hendrick Motors of Charlotte - Mercedes-Benz", "address": "5201 E Independence Blvd", "city": "Charlotte", "state": "NC", "postal_code": "28212", "latitude": 35.1880178706, "longitude": -80.758757852, "stars": 2.5, "review_count": 32, "is_open": 1, "categories": "Auto Repair, Car Dealers, Automotive"}
{"business_id": "07cgbTbANYhVDfzTMOkB9w", "name": "Frontier Automotive", "address": "16223 N Cave Creek Rd", "city": "Phoenix", "state": "AZ", "postal_code": "85032", "latitude": 33.6336893, "longitude": -112.0304348, "stars": 4.5, "review_count": 17, "is_open": 1, "categories": "Automotive, Auto Repair"}
{"business_id": "007Dg4ESDVacWcC4Vq704Q", "name": "Front Door Organics", "address": "415 Horner Avenue", "city": "Toronto", "state": "ON", "postal_code": "M8W 4W3", "latitude": 43.603232, "longitude": -79.5384244, "stars": 4.0, "review_count": 8, "is_open": 0, "categories": "Shopping, Food, Organic Stores, Specialty Food, Health Markets, Food Delivery Services, Grocery, Farmers Market"}
{"business_id": "9sRGfSVEfLhN_km60YruTA", "name": "Apadana Restaurant", "address": "13071 Yonge Street", "city": "Richmond Hill", "state": "ON", "postal_code": "L4E 1A5", "latitude": 43.9470107964, "longitude": -79.454861645, "stars": 3.0, "review_count": 3, "is_open": 1, "categories": "Persian/Iranian, Turkish, Middle Eastern, Restaurants, Kebab"}
{"business_id": "pcaQDBM6r0PWTXfYZK6RdA", "name": "IGA Extra", "address": "8130 Boulevard Champlain", "city": "Lasalle", "state": "QC", "postal_code": "H8P 1B4", "latitude": 45.4256452, "longitude": -73.6119339, "stars": 3.0, "review_count": 6, "is_open": 1, "categories": "Food, Grocery"}
{"business_id": "DCsS3SgVFO56F6wRO_ewgA", "name": "Missy Donuts & Coffee", "address": "1255 W Main St", "city": "Mesa", "state": "AZ", "postal_code": "85201", "latitude": 33.4144086, "longitude": -111.8583777, "stars": 2.5, "review_count": 7, "is_open": 0, "categories": "Donuts, Juice Bars & Smoothies, Food, Coffee & Tea"}
{"business_id": "vjTVxnsQEZ34XjYNS-XUpA", "name": "Wetzel's Pretzels", "address": "4550 East Cactus Rd, #KSFC-4", "city": "Phoenix", "state": "AZ", "postal_code": "85032", "latitude": 33.602822, "longitude": -111.983533, "stars": 4.0, "review_count": 10, "is_open": 1, "categories": "Food, Pretzels, Bakeries, Fast Food, Restaurants"}
{"business_id": "03x6ZlJ7s39DHqfTJU1Ecg", "name": "Beechmont Country Club", "address": "29600 Chagrin Blvd", "city": "Beachwood", "state": "OH", "postal_code": "44122", "latitude": 41.461448, "longitude": -81.470127, "stars": 4.5, "review_count": 7, "is_open": 1, "categories": "Event Planning & Services, Venues & Event Spaces, Golf, Country Clubs, Active Life, Arts & Entertainment"}
{"business_id": "UqBTL1dq9QcOISikgeknow", "name": "GK's Vapor Pub", "address": "17058 W Bell Raod, Ste 101", "city": "Surprise", "state": "AZ", "postal_code": "85374", "latitude": 33.640552, "longitude": -112.425676, "stars": 5.0, "review_count": 8, "is_open": 1, "categories": "Shopping, Vape Shops, Tobacco Shops"}
{"business_id": "fnZrZlqW1Z8iWgTVDfv_MA", "name": "Carl's Jr", "address": "9595 W Tropicana Ave", "city": "Las Vegas", "state": "NV", "postal_code": "89147", "latitude": 36.0997379, "longitude": -115.3015683, "stars": 2.5, "review_count": 15, "is_open": 0, "categories": "Mexican, Restaurants, Fast Food"}
{"business_id": "kHCTmEekJJwYsJEy7xYM5w", "name": "Banner - University Family Medicine Center", "address": "1300 N 12th St, Ste 605", "city": "Phoenix", "state": "AZ", "postal_code": "85006", "latitude": 33.4628408, "longitude": -112.0572315, "stars": 3.0, "review_count": 3, "is_open": 1, "categories": "Doctors, Health & Medical, Preventive Medicine, Medical Centers"}
{"business_id": "rVBPQdeayMYht4Uv_FOLHg", "name": "Gourmet Burger Company", "address": "843 Kipling Avenue", "city": "Toronto", "state": "ON", "postal_code": "M8Z 5G9", "latitude": 43.6332914, "longitude": -79.5317683, "stars": 3.0, "review_count": 13, "is_open": 0, "categories": "Restaurants, Burgers, Food"}
{"business_id": "_4Oe9V-qTpU5iemM9bphlA", "name": "Goodyear Auto Service Center", "address": "800 Fort Duquesne Blvd, Ste 1", "city": "Pittsburgh", "state": "PA", "postal_code": "15222", "latitude": 40.4446143588, "longitude": -79.9993437231, "stars": 3.5, "review_count": 12, "is_open": 1, "categories": "Oil Change Stations, Auto Repair, Automotive, Tires"}
{"business_id": "PslhllUwcQFavRHp-lyMOQ", "name": "Disney Store", "address": "8111 Concord Mills Blvd, Space 214", "city": "Concord", "state": "NC", "postal_code": "28027", "latitude": 35.370076, "longitude": -80.723929, "stars": 3.5, "review_count": 6, "is_open": 1, "categories": "Children's Clothing, Shopping, Outlet Stores, Fashion, Toy Stores"}
{"business_id": "98hyK2QEUeI8v2y0AghfZA", "name": "Pho Lee's Vietnamese Restaurant", "address": "1541 E 38th St, Ste 101", "city": "Cleveland", "state": "OH", "postal_code": "44114", "latitude": 41.5121553, "longitude": -81.663332, "stars": 4.5, "review_count": 23, "is_open": 1, "categories": "Restaurants, Vietnamese, Soup"}
{"business_id": "fhNf_sg-XzZ3e7HEVGuOZg", "name": "Meat Chix And Wieners", "address": "6530 S Decatur Blvd", "city": "Las Vegas", "state": "NV", "postal_code": "89118", "latitude": 36.071196, "longitude": -115.207463, "stars": 3.0, "review_count": 10, "is_open": 0, "categories": "Burgers, Restaurants, American (Traditional), Chicken Wings"}
{"business_id": "LoRef3ChgZKbxUio-sHgQg", "name": "Amir", "address": "5252 Rue Jean Talon O", "city": "Montr\u00e9al", "state": "QC", "postal_code": "H4P 2A7", "latitude": 45.4948701572, "longitude": -73.6519035927, "stars": 3.0, "review_count": 18, "is_open": 1, "categories": "Restaurants, Lebanese, Middle Eastern"}
{"business_id": "Ga2Bt7xfqoggTypWD5VpoQ", "name": "Amando's Bros", "address": "2602 W Southern Ave", "city": "Tempe", "state": "AZ", "postal_code": "85282", "latitude": 33.393199, "longitude": -111.97627, "stars": 4.0, "review_count": 9, "is_open": 0, "categories": "Mexican, Restaurants"}
{"business_id": "_xOeoXfPUQTNlUAhXl32ug", "name": "Starbucks", "address": "150 Boulevard Cr\u00e9mazie E", "city": "Montr\u00e9al", "state": "QC", "postal_code": "H2P 1E2", "latitude": 45.542993, "longitude": -73.640218, "stars": 3.5, "review_count": 4, "is_open": 1, "categories": "Coffee & Tea, Food"}
{"business_id": "xFc50drSPxXkcLvX5ygqrg", "name": "Boomer's Sweet Home Chicago", "address": "5932 W Bell Rd, Ste D-109", "city": "Glendale", "state": "AZ", "postal_code": "85308", "latitude": 33.6403912, "longitude": -112.1870284, "stars": 3.5, "review_count": 12, "is_open": 0, "categories": "Burgers, Fast Food, American (New), Restaurants, Hot Dogs"}
{"business_id": "oPfzMA_kA9NQwG-h-JkGzA", "name": "Bass Pro Shops Outdoor World", "address": "1 Bass Pro Mills Drive", "city": "Concord", "state": "ON", "postal_code": "L4K 5W4", "latitude": 43.824968, "longitude": -79.543494, "stars": 3.5, "review_count": 39, "is_open": 1, "categories": "Fashion, Sports Wear, Shopping, Sporting Goods, Outdoor Gear"}
{"business_id": "jutfk7U4GV899q6qfYp5dA", "name": "Christ's Church of the Valley - Anthem Campus", "address": "39905 N Gavilan Peak Pkwy", "city": "Anthem", "state": "AZ", "postal_code": "85086", "latitude": 33.8468406, "longitude": -112.1365477, "stars": 5.0, "review_count": 4, "is_open": 1, "categories": "Churches, Religious Organizations"}
{"business_id": "tLpkSwdtqqoXwU0JAGnApw", "name": "Wendy's", "address": "4602 Northfield Road", "city": "Cleveland", "state": "OH", "postal_code": "44128", "latitude": 41.434614, "longitude": -81.5270257, "stars": 3.5, "review_count": 7, "is_open": 1, "categories": "Restaurants, Fast Food, Burgers"}
{"business_id": "Sd75ucXKoZUM2BEfBHFUOg", "name": "China Gourmet", "address": "3460 E Southern Ave, Ste 109", "city": "Mesa", "state": "AZ", "postal_code": "85204", "latitude": 33.39486287, "longitude": -111.7560359322, "stars": 3.0, "review_count": 13, "is_open": 0, "categories": "Chinese, Restaurants"}
{"business_id": "5XMKDYmMGSKkCkrYoELxzg", "name": "Annette Thomas Hair Colorist Specialist", "address": "101 S Rainbow Blvd, Ste 23, Darby's Hairitage", "city": "Las Vegas", "state": "NV", "postal_code": "89107", "latitude": 36.1725342, "longitude": -115.2447619, "stars": 5.0, "review_count": 7, "is_open": 1, "categories": "Hair Stylists, Hair Salons, Beauty & Spas"}
{"business_id": "9JCjKd6eFXsAMVwouTh_4Q", "name": "Bath and Body Works", "address": "1900 Eglintion Ave E", "city": "Toronto", "state": "ON", "postal_code": "M1L 2L9", "latitude": 43.7271887, "longitude": -79.2930079, "stars": 3.5, "review_count": 7, "is_open": 1, "categories": "Cosmetics & Beauty Supply, Shopping, Beauty & Spas"}
{"business_id": "Mmd5WDFq9hHcQ3uClngGjQ", "name": "Irene's Tap Room", "address": "1227 E Northern Ave", "city": "Phoenix", "state": "AZ", "postal_code": "85020", "latitude": 33.55279, "longitude": -112.0554, "stars": 4.5, "review_count": 79, "is_open": 1, "categories": "Bars, Arts & Entertainment, Nightlife, Music Venues"}
{"business_id": "lK-wuiq8b1TuU7bfbQZgsg", "name": "Hingetown", "address": "", "city": "Cleveland", "state": "OH", "postal_code": "44113", "latitude": 41.4893428107, "longitude": -81.711028698, "stars": 3.0, "review_count": 4, "is_open": 1, "categories": "Shopping Centers, Food, Coffee & Tea, Cafes, Museums, Restaurants, Shopping, Local Flavor, Flowers & Gifts, Arts & Entertainment, Art Galleries, Florists"}
{"business_id": "gflx3mAzi4iG20NOUz19eA", "name": "BeStitched Needlepoint", "address": "6990 E Shea Blvd, Ste 124", "city": "Scottsdale", "state": "AZ", "postal_code": "85254", "latitude": 33.5829619, "longitude": -111.930651, "stars": 3.5, "review_count": 11, "is_open": 1, "categories": "Arts & Crafts, Shopping"}
{"business_id": "YFsb1ydMxFLrxtJ3CffVhw", "name": "LA Fitness", "address": "7640 W Thomas Rd", "city": "Phoenix", "state": "AZ", "postal_code": "85033", "latitude": 33.481551, "longitude": -112.223225, "stars": 2.5, "review_count": 32, "is_open": 1, "categories": "Yoga, Active Life, Trainers, Sports Clubs, Fitness & Instruction, Gyms"}
{"business_id": "3BfGGIJn8lxvu1k3ZZnL1w", "name": "Th\u00e9\u00e2tre Corona", "address": "2490 Rue Notre-Dame O", "city": "Montr\u00e9al", "state": "QC", "postal_code": "H3J 1N5", "latitude": 45.4827774, "longitude": -73.5750063, "stars": 4.0, "review_count": 18, "is_open": 1, "categories": "Nightlife, Arts & Entertainment, Performing Arts, Music Venues"}
{"business_id": "rdg0b0tHKvSCQNl6u3tS_A", "name": "SML Entertainment", "address": "3605 32 Street NE", "city": "Calgary", "state": "AB", "postal_code": "T1Y 5Y9", "latitude": 51.0849898438, "longitude": -113.9896052982, "stars": 2.5, "review_count": 5, "is_open": 1, "categories": "Shopping, Caterers, Furniture Stores, Hot Tub & Pool, Hobby Shops, Home & Garden, Musical Instruments & Teachers, Event Planning & Services, Sporting Goods, Pool & Billiards"}
{"business_id": "LAoSegVNU4wx4GTA8reB6A", "name": "Tzikii Food Truck", "address": "7510 S Priest Dr", "city": "Tempe", "state": "AZ", "postal_code": "85283", "latitude": 33.3501044, "longitude": -111.9636604, "stars": 3.0, "review_count": 4, "is_open": 1, "categories": "Restaurants, Egyptian, Food Trucks, Food, Middle Eastern"}
{"business_id": "tF2ovXGBW6EeaPDWOxjpbg", "name": "Autohaus Az", "address": "4100 S 38th St, Ste 150", "city": "Phoenix", "state": "AZ", "postal_code": "85040", "latitude": 33.4098351, "longitude": -112.0009681, "stars": 3.5, "review_count": 79, "is_open": 1, "categories": "Automotive, Auto Parts & Supplies"}
{"business_id": "-qjn24n8HYF6It9GQrQntw", "name": "Five Guys Burgers and Fries", "address": "2130 E Arbors Dr", "city": "Charlotte", "state": "NC", "postal_code": "28262", "latitude": 35.33807, "longitude": -80.757397, "stars": 4.0, "review_count": 15, "is_open": 0, "categories": "Fast Food, American (New), Restaurants, Burgers"}
{"business_id": "7uYJJpwORUbCirC1mz8n9Q", "name": "Gallo Law Office", "address": "818 S Casino Center Blvd", "city": "Las Vegas", "state": "NV", "postal_code": "89101", "latitude": 36.1619786, "longitude": -115.1500885, "stars": 2.5, "review_count": 3, "is_open": 1, "categories": "Lawyers, Professional Services, DUI Law, Criminal Defense Law"}
{"business_id": "ZkzutF0P_u0C0yTulwaHkA", "name": "Lelulos Pizzeria", "address": "311 Unity Center Rd", "city": "Plum", "state": "PA", "postal_code": "15239", "latitude": 40.4899958, "longitude": -79.7792879, "stars": 4.0, "review_count": 31, "is_open": 1, "categories": "Restaurants, Pizza"}
{"business_id": "EjRyYGHUxlwxYY8N73vv2w", "name": "Verizon Authorized Retailer, TCC", "address": "2218 E Williams Field Rd, Ste 115", "city": "Gilbert", "state": "AZ", "postal_code": "85295", "latitude": 33.309233, "longitude": -111.743293, "stars": 3.0, "review_count": 7, "is_open": 1, "categories": "Mobile Phones, Internet Service Providers, Mobile Phone Repair, Local Services, Electronics, IT Services & Computer Repair, Mobile Phone Accessories, Shopping, Home Services, Professional Services"}
{"business_id": "EQcCkiXbZARWGhVU02BYcw", "name": "FedEx Office Print & Ship Center", "address": "230 E Wt Harris Blvd, A1", "city": "Charlotte", "state": "NC", "postal_code": "28262", "latitude": 35.3031382, "longitude": -80.7485167, "stars": 3.5, "review_count": 9, "is_open": 1, "categories": "Shipping Centers, Printing Services, Professional Services, Local Services, Signmaking"}
{"business_id": "bierVTEi44nJtFVQ01N-yQ", "name": "Lacoste Outlet Las Vegas", "address": "855 S Grand Central Pkwy", "city": "Las Vegas", "state": "NV", "postal_code": "89106", "latitude": 36.1630111, "longitude": -115.1583136, "stars": 3.5, "review_count": 11, "is_open": 1, "categories": "Accessories, Shopping, Fashion, Men's Clothing, Women's Clothing"}
{"business_id": "y2CeHDAglfBz26nNxvwwow", "name": "Helen Blakey Flowers", "address": "3463 Sheppard Ave E", "city": "Scarborough", "state": "ON", "postal_code": "M1T 3K5", "latitude": 43.7790468, "longitude": -79.3047189, "stars": 4.5, "review_count": 7, "is_open": 1, "categories": "Flowers & Gifts, Shopping, Florists"}
{"business_id": "bevuR6hYNuXCh9W0goe2kA", "name": "MD Laser Med Spa", "address": "7175 W Lake Mead Blvd, Ste 168", "city": "Las Vegas", "state": "NV", "postal_code": "89128", "latitude": 36.195266, "longitude": -115.2481396, "stars": 3.5, "review_count": 33, "is_open": 0, "categories": "Eyelash Service, Hair Salons, Skin Care, Doctors, Laser Hair Removal, Health & Medical, Beauty & Spas, Medical Spas, Tattoo Removal, Hair Removal"}
{"business_id": "UyZqOcWxShRRtACCkZFkpQ", "name": "Local Pet", "address": "415 Gettysburg St, Ste 1", "city": "Pittsburgh", "state": "PA", "postal_code": "15206", "latitude": 40.4499755, "longitude": -79.9148756, "stars": 5.0, "review_count": 3, "is_open": 1, "categories": "Pet Sitting, Pets, Pet Stores, Pet Services, Pet Groomers"}
{"business_id": "1TLZtAkDMnCvTyE4wmGWYg", "name": "Ocotillo Internal Medicine Associates", "address": "3503 S Mercy Rd", "city": "Gilbert", "state": "AZ", "postal_code": "85297", "latitude": 33.285412, "longitude": -111.748199, "stars": 3.5, "review_count": 20, "is_open": 1, "categories": "Family Practice, Health & Medical, Internal Medicine, Doctors"}
{"business_id": "5ZgMwaMPLV4EB71KtLg7EQ", "name": "Maximum Performance Batting Cages & Training Center", "address": "7625 E Redfield Rd, Ste 400", "city": "Scottsdale", "state": "AZ", "postal_code": "85260", "latitude": 33.6126331568, "longitude": -111.9161430503, "stars": 5.0, "review_count": 3, "is_open": 1, "categories": "Batting Cages, Active Life"}
{"business_id": "Ar7b3_R0OBrSIbRmGvhWwg", "name": "Garage Experts of Charlotte", "address": "", "city": "Charlotte", "state": "NC", "postal_code": "28202", "latitude": 35.2326781, "longitude": -80.8460822, "stars": 3.5, "review_count": 3, "is_open": 1, "categories": "Cabinetry, Home Services, Flooring, Self Storage, Painters, Local Services, Contractors, Home Organization"}
{"business_id": "0QjROMVW9ACKjhSEfHqNCQ", "name": "Mi Mi Restaurant", "address": "688 Gerrard Street E", "city": "Toronto", "state": "ON", "postal_code": "M4M 1Y3", "latitude": 43.6663763388, "longitude": -79.3487726589, "stars": 4.0, "review_count": 116, "is_open": 1, "categories": "Vietnamese, Restaurants"}
{"business_id": "OT-8IUWo_2M-rHddjzz_Cg", "name": "Equipment Sales and Long Term Rentals - Redline Promotions", "address": "510 Coronation Dr. Unit #18, Unit 18", "city": "Toronto", "state": "ON", "postal_code": "M1E 4X6", "latitude": 43.7652657335, "longitude": -79.1669769712, "stars": 1.5, "review_count": 3, "is_open": 1, "categories": "Event Planning & Services, Photo Booth Rentals, Venues & Event Spaces, DJs, Party & Event Planning, Party Supplies"}
{"business_id": "umDBj-8WUNkNBODa6P0G-Q", "name": "Natural Scents", "address": "143 Sheppard Avenue W", "city": "Toronto", "state": "ON", "postal_code": "M2N 1M7", "latitude": 43.7596753, "longitude": -79.4181223, "stars": 4.5, "review_count": 8, "is_open": 1, "categories": "Health & Medical, Massage Therapy, Eyelash Service, Waxing, Beauty & Spas, Hair Removal"}
{"business_id": "rZSS1JzizAKTIWXxU1g_hA", "name": "Shaolin Temple Quanfa Institute", "address": "198 Spadina Avenue", "city": "Toronto", "state": "ON", "postal_code": "M5T 2C2", "latitude": 43.6502316, "longitude": -79.3972233, "stars": 5.0, "review_count": 3, "is_open": 0, "categories": "Fitness & Instruction, Martial Arts, Active Life"}
{"business_id": "OLciBerMDmD_WYzfYbmkqA", "name": "The Lounge at Saxe Theater", "address": "3663 Las Vegas Blvd S, Ste 454", "city": "Las Vegas", "state": "NV", "postal_code": "89109", "latitude": 36.1107987156, "longitude": -115.1725074446, "stars": 3.5, "review_count": 4, "is_open": 1, "categories": "Nightlife, Arts & Entertainment, Bars, Lounges, Ticket Sales, Performing Arts"}
{"business_id": "FrMRHhzT-qUzv1-Nh1IOjQ", "name": "Sin City Party Buses", "address": "4005 W Reno Ave, Ste C", "city": "Las Vegas", "state": "NV", "postal_code": "89118", "latitude": 36.0968783, "longitude": -115.1928992, "stars": 4.0, "review_count": 18, "is_open": 1, "categories": "Hotels & Travel, Party Bus Rentals, Limos, Event Planning & Services, Transportation"}
{"business_id": "53Q2c9qMLEjD9r1wMn6Q8g", "name": "CJ Laptop Service Centre", "address": "287 College Street", "city": "Toronto", "state": "ON", "postal_code": "M5T 1S2", "latitude": 43.6576212, "longitude": -79.4008849, "stars": 4.0, "review_count": 4, "is_open": 1, "categories": "Shopping, Computers"}
{"business_id": "iAtCgs1XXPeHVrftHOv1dQ", "name": "On the Green Deli & Catering", "address": "13840 Ballantyne Corporate Pl, Ste 175", "city": "Charlotte", "state": "NC", "postal_code": "28277", "latitude": 35.0628528, "longitude": -80.8549901, "stars": 3.5, "review_count": 10, "is_open": 1, "categories": "Caterers, Event Planning & Services"}
{"business_id": "gsWnxCMru_x4-4izu3kiXA", "name": "Veterans Park", "address": "2136 Central Ave", "city": "Charlotte", "state": "NC", "postal_code": "28205", "latitude": 35.21776, "longitude": -80.8049131, "stars": 4.5, "review_count": 10, "is_open": 1, "categories": "Parks, Active Life"}
{"business_id": "RrapAhd8ZxCj-iue7fu9FA", "name": "Ganga Restaurant", "address": "515 4th Avenue SW", "city": "Calgary", "state": "AB", "postal_code": "T2P 0J8", "latitude": 51.0494068, "longitude": -114.072656, "stars": 1.5, "review_count": 3, "is_open": 1, "categories": "Restaurants, Buffets, Indian, Halal"}
{"business_id": "7j0kor_fkeYhyEpXh4OpnQ", "name": "Scramblers - Strongsville", "address": "16726 Pearl Rd", "city": "Strongsville", "state": "OH", "postal_code": "44136", "latitude": 41.295689, "longitude": -81.835722, "stars": 3.5, "review_count": 81, "is_open": 1, "categories": "Breakfast & Brunch, Restaurants, American (Traditional), Salad"}
{"business_id": "wUG9y_Yoq7Mfxz_9OdjI8Q", "name": "Mint Hill Barber Shop", "address": "11211 Lawyers Rd, Ste 116", "city": "Mint Hill", "state": "NC", "postal_code": "28227", "latitude": 35.1745683, "longitude": -80.6575973, "stars": 4.5, "review_count": 14, "is_open": 1, "categories": "Beauty & Spas, Barbers"}
{"business_id": "PRRHaB4zge1cqskFWvQ9ZQ", "name": "Action Furnace", "address": "4086 Ogden Road SE", "city": "Calgary", "state": "AB", "postal_code": "T2G 4P7", "latitude": 51.018603, "longitude": -114.021134, "stars": 3.0, "review_count": 7, "is_open": 1, "categories": "Water Heater Installation/Repair, Heating & Air Conditioning/HVAC, Home Services"}
{"business_id": "OWkS1FXNJbozn-qPg3LWxg", "name": "Mama Napoli Pizza", "address": "", "city": "Las Vegas", "state": "NV", "postal_code": "89109", "latitude": 36.128561, "longitude": -115.1711298, "stars": 4.5, "review_count": 11, "is_open": 1, "categories": "Food, Food Trucks, Restaurants, Pizza"}
{"business_id": "Bom8MY07_YloY1R2EXrpdA", "name": "Mona Richie Bridal", "address": "4040 Steeles Avenue W, Suite 8", "city": "Woodbridge", "state": "ON", "postal_code": "L4L 4Y5", "latitude": 43.7699285501, "longitude": -79.5514584705, "stars": 2.5, "review_count": 24, "is_open": 1, "categories": "Bridal, Shopping"}
{"business_id": "UiyjUa8CQmygujhe-ZYlsw", "name": "Movers 4 Less Inc", "address": "", "city": "Champaign", "state": "IL", "postal_code": "61822", "latitude": 40.1270299607, "longitude": -88.2416988672, "stars": 3.0, "review_count": 15, "is_open": 1, "categories": "Home Services, Movers"}
{"business_id": "j9bWpCRwpDVfwVT_V85qeA", "name": "Papaya Thai", "address": "2706 E University Dr", "city": "Mesa", "state": "AZ", "postal_code": "85213", "latitude": 33.4237052, "longitude": -111.7728895, "stars": 2.5, "review_count": 130, "is_open": 1, "categories": "Food, Ethnic Food, Specialty Food, Restaurants, Thai"}
{"business_id": "6GHwgKNlvfIMUpFaxgBjUA", "name": "L'Artisan Piadineria", "address": "3421 Rue Saint-Denis", "city": "Montr\u00e9al", "state": "QC", "postal_code": "H2L 3L2", "latitude": 45.517368812, "longitude": -73.5679399967, "stars": 4.0, "review_count": 9, "is_open": 0, "categories": "Sandwiches, Italian, Restaurants"}
{"business_id": "dee5uffullqnbI7VM0K7FA", "name": "Darroch Motorsports", "address": "501 N Scottsdale Rd", "city": "Scottsdale", "state": "AZ", "postal_code": "85257", "latitude": 33.4538421631, "longitude": -111.9260025024, "stars": 3.5, "review_count": 3, "is_open": 0, "categories": "Automotive, Car Dealers"}
{"business_id": "bBhbxPjxDZSYVD-3tjUwnw", "name": "Jefferson Chandler by Alliance", "address": "3950 W Chandler Blvd", "city": "Chandler", "state": "AZ", "postal_code": "85226", "latitude": 33.306145, "longitude": -111.909383, "stars": 3.0, "review_count": 10, "is_open": 0, "categories": "Home Services, Real Estate, Apartments"}
{"business_id": "efdPLo00sOD-1Wf77hg5jQ", "name": "TruGreen Lawn Care", "address": "108 Petry Ct", "city": "Champaign", "state": "IL", "postal_code": "61822", "latitude": 40.137287, "longitude": -88.2384359, "stars": 2.0, "review_count": 13, "is_open": 1, "categories": "Shopping, Nurseries & Gardening, Tree Services, Home Services, Landscaping, Home & Garden, Lawn Services"}
{"business_id": "Ir_QIzs-4o9ElOtiGuxJrw", "name": "Torteria Lupita", "address": "4601 Rue Notre-Dame O", "city": "Montr\u00e9al", "state": "QC", "postal_code": "H4C 1S5", "latitude": 45.4736323, "longitude": -73.5881347, "stars": 4.0, "review_count": 19, "is_open": 0, "categories": "Mexican, Sandwiches, Restaurants, Breakfast & Brunch"}
{"business_id": "GtQPbazps0jt7_cJghfmsA", "name": "The Market by Longo's", "address": "100 Bloor St E", "city": "Toronto", "state": "ON", "postal_code": "M4W 1A7", "latitude": 43.6709361, "longitude": -79.3846434, "stars": 2.5, "review_count": 41, "is_open": 1, "categories": "Food, Grocery"}
{"business_id": "7drzQefNQrcf8pswAXcc-A", "name": "Paisano Barber Shop", "address": "590 N Alma School Rd", "city": "Chandler", "state": "AZ", "postal_code": "85224", "latitude": 33.3116948, "longitude": -111.8600384, "stars": 2.5, "review_count": 9, "is_open": 1, "categories": "Beauty & Spas, Barbers"}
{"business_id": "0Y5Kzo8PWHTjk0tlfAKcDQ", "name": "Caballero", "address": "804www.caballerolounge.com Rue Roy E", "city": "Montr\u00e9al", "state": "QC", "postal_code": "H2L 1E3", "latitude": 45.5206987494, "longitude": -73.5726423331, "stars": 3.5, "review_count": 3, "is_open": 1, "categories": "Restaurants, Tapas/Small Plates"}
{"business_id": "ER7zYKFy2YZVovBpElsU4w", "name": "Cowtown Boots", "address": "2710 W Thunderbird Rd", "city": "Phoenix", "state": "AZ", "postal_code": "85053", "latitude": 33.612317, "longitude": -112.119295, "stars": 3.0, "review_count": 30, "is_open": 1, "categories": "Shopping, Fashion, Men's Clothing, Shoe Stores"}
{"business_id": "w-ZTkkXefxTEHlgpKA55mQ", "name": "Rehab Directives SPOT 4 TOTS", "address": "3213 W Charleston Blvd, Ste 105", "city": "Las Vegas", "state": "NV", "postal_code": "89102", "latitude": 36.1583452, "longitude": -115.184979, "stars": 3.5, "review_count": 6, "is_open": 1, "categories": "Occupational Therapy, Health & Medical, Massage Therapy, Physical Therapy, Speech Therapists"}
{"business_id": "JcsZvx-4yovFgCXOfd6KMg", "name": "Sam's Deli Mart", "address": "3300 N Central Ave Lbby", "city": "Phoenix", "state": "AZ", "postal_code": "85012", "latitude": 33.648302, "longitude": -112.119379, "stars": 3.0, "review_count": 4, "is_open": 0, "categories": "Restaurants, Sandwiches"}
{"business_id": "MTx-Zdl_KcU_z9G832XAjg", "name": "Taco Bell", "address": "8033 N Durango Dr", "city": "Las Vegas", "state": "NV", "postal_code": "89131", "latitude": 36.3074953, "longitude": -115.2790587, "stars": 2.5, "review_count": 37, "is_open": 1, "categories": "Fast Food, Restaurants"}
{"business_id": "a6d7UcYnRvbr4t-THg4pSQ", "name": "The Pub", "address": "19304 Detroit Rd", "city": "Rocky River", "state": "OH", "postal_code": "44116", "latitude": 41.4818903, "longitude": -81.8361428, "stars": 3.5, "review_count": 17, "is_open": 0, "categories": "Pubs, Food, Bars, Beer, Wine & Spirits, Restaurants, Gastropubs, British, Nightlife, Fish & Chips"}
{"business_id": "ba5PtEQcvLm0IH6oHvahgw", "name": "Foster Day Car Wash", "address": "4910 W Vegas Dr", "city": "Las Vegas", "state": "NV", "postal_code": "89108", "latitude": 36.1882095337, "longitude": -115.2081298828, "stars": 2.5, "review_count": 3, "is_open": 1, "categories": "Car Wash, Automotive"}
{"business_id": "UFU8ONTkzEkcOk61XJ8JwQ", "name": "Nickels", "address": "1200 Rue Peel", "city": "Montr\u00e9al", "state": "QC", "postal_code": "H3B 2T6", "latitude": 45.4994350206, "longitude": -73.5721168667, "stars": 2.0, "review_count": 5, "is_open": 0, "categories": "Diners, American (Traditional), Restaurants"}
{"business_id": "-C0AlwLuXpcP609madJZQQ", "name": "Pizzaville", "address": "1030 Kennedy Circle, Unit 10", "city": "Milton", "state": "ON", "postal_code": "L9T 0J9", "latitude": 43.5089619, "longitude": -79.8379902, "stars": 3.5, "review_count": 7, "is_open": 1, "categories": "Restaurants, Pizza"}
{"business_id": "2sbmuE1_cJrEP7JwO0l-zQ", "name": "Royal skincare", "address": "7127 E Sahuaro Dr S, Suit 105", "city": "Scottsdale", "state": "AZ", "postal_code": "85254", "latitude": 33.5835404, "longitude": -111.9268256, "stars": 5.0, "review_count": 4, "is_open": 1, "categories": "Skin Care, Beauty & Spas, Acne Treatment"}
{"business_id": "W7hCuNdn2gzehta6eSHzgQ", "name": "Pete's Fish & Chips", "address": "1017 E Apache Blvd", "city": "Tempe", "state": "AZ", "postal_code": "85281", "latitude": 33.4145065, "longitude": -111.9237207, "stars": 2.0, "review_count": 117, "is_open": 1, "categories": "Restaurants, Fish & Chips, Seafood"}
{"business_id": "8nP8ghEpT6WFcM6tfqAaGA", "name": "Sugar Bowl", "address": "4005 N Scottsdale Rd", "city": "Scottsdale", "state": "AZ", "postal_code": "85251", "latitude": 33.4937754, "longitude": -111.9259331, "stars": 3.5, "review_count": 720, "is_open": 1, "categories": "Ice Cream & Frozen Yogurt, Sandwiches, Food, American (Traditional), Restaurants"}
{"business_id": "Nia-bZ6YB2zIdz8kSHTASQ", "name": "Viking Cleaners", "address": "17060 N Thompson Peak Pkwy, Ste 125", "city": "Scottsdale", "state": "AZ", "postal_code": "85255", "latitude": 33.6408656199, "longitude": -111.8617630005, "stars": 3.0, "review_count": 3, "is_open": 0, "categories": "Local Services, Dry Cleaning & Laundry, Shopping Centers, Professional Services, Shopping, Laundry Services, Sewing & Alterations, Dry Cleaning"}
{"business_id": "8k62wYhDVq1-652YbJi5eg", "name": "Tim Hortons", "address": "90 Adelaide Street W", "city": "Toronto", "state": "ON", "postal_code": "M5H 3V9", "latitude": 43.6498592, "longitude": -79.3820602, "stars": 3.0, "review_count": 8, "is_open": 1, "categories": "Bagels, Donuts, Food, Cafes, Coffee & Tea, Restaurants, Bakeries"}
{"business_id": "PYLv9n0y8MimzTK2zCBoFw", "name": "GIG@bites Internet Cafe", "address": "618 Bloor St W", "city": "Toronto", "state": "ON", "postal_code": "M6G", "latitude": 43.6647074, "longitude": -79.4139395, "stars": 3.0, "review_count": 4, "is_open": 1, "categories": "Home Services, Shopping, IT Services & Computer Repair, Internet Cafes, Food, Local Services, Computers, Internet Service Providers, Professional Services"}
{"business_id": "mRMljeCr44acwg7KgS1UUg", "name": "Bonanza Indoor Swapmeet", "address": "1720 E Charleston Blvd", "city": "Las Vegas", "state": "NV", "postal_code": "89104", "latitude": 36.1577290511, "longitude": -115.1264768151, "stars": 2.5, "review_count": 7, "is_open": 1, "categories": "Street Vendors, Shopping, Baby Gear & Furniture, Beauty & Spas, Food, Hair Removal, Flea Markets"}
{"business_id": "dU0puD3USCFPpxfDqqIHOg", "name": "Granite Grille at Shale Creek Golf Club", "address": "5420 Wolff Rd", "city": "Medina", "state": "OH", "postal_code": "44256", "latitude": 41.1918161836, "longitude": -81.8831963092, "stars": 3.0, "review_count": 4, "is_open": 1, "categories": "Active Life, Golf"}
{"business_id": "fu_ZwTFshqeMXvKjeOL6mA", "name": "Mods & Rockers", "address": "1504 NW Grand Ave", "city": "Phoenix", "state": "AZ", "postal_code": "85007", "latitude": 33.4591448, "longitude": -112.0916104, "stars": 2.5, "review_count": 3, "is_open": 1, "categories": "Arts & Entertainment, Shopping, Musical Instruments & Teachers"}
{"business_id": "8Hvp1tYKiQbBgGIwkCRK5g", "name": "Tony's Family Restaurant", "address": "1515 W Pleasant Valley Rd", "city": "Parma", "state": "OH", "postal_code": "44134", "latitude": 41.3611852, "longitude": -81.688755, "stars": 4.0, "review_count": 60, "is_open": 1, "categories": "Coffee & Tea, Restaurants, Food, Breakfast & Brunch, American (Traditional)"}
{"business_id": "z8ALoGGS7fkswkevuslq7Q", "name": "Barnes & Noble Booksellers", "address": "1446 N Litchfield Rd", "city": "Goodyear", "state": "AZ", "postal_code": "85395", "latitude": 33.4634338794, "longitude": -112.3611214484, "stars": 4.0, "review_count": 36, "is_open": 1, "categories": "Shopping, Books, Mags, Music & Video, Bookstores, Music & DVDs, Toy Stores"}
{"business_id": "VHAVNy-8DljdyJ-j57NlGg", "name": "Air Today", "address": "8100 England St", "city": "Charlotte", "state": "NC", "postal_code": "28273", "latitude": 35.12984, "longitude": -80.8830119, "stars": 3.5, "review_count": 7, "is_open": 1, "categories": "Home & Garden, Shopping, Appliances, Heating & Air Conditioning/HVAC, Home Services, Plumbing, Water Heater Installation/Repair"}
{"business_id": "uWZgw7ILgHsurvisrFCyuA", "name": "Pure Fitness", "address": "7759 W Bell Rd", "city": "Peoria", "state": "AZ", "postal_code": "85382", "latitude": 33.6356764, "longitude": -112.2253923, "stars": 3.0, "review_count": 4, "is_open": 0, "categories": "Active Life, Fitness & Instruction, Gyms"}
{"business_id": "GqgPUGiU1ybuFw4ltdWhaA", "name": "HonorHealth Medical Group - Indian School", "address": "4131 N 24th St, Ste B-102", "city": "Phoenix", "state": "AZ", "postal_code": "85016", "latitude": 33.4957508, "longitude": -112.0300396, "stars": 2.5, "review_count": 7, "is_open": 0, "categories": "Hospitals, Health & Medical, Doctors"}
{"business_id": "39lLJK_rrYY2NYomSsQdUA", "name": "Marco's Pizza", "address": "24335 Chagrin Blvd", "city": "Beachwood", "state": "OH", "postal_code": "44122", "latitude": 41.4657893, "longitude": -81.5063487, "stars": 2.5, "review_count": 11, "is_open": 1, "categories": "Restaurants, Pizza"}
{"business_id": "Esxb43JutBTH8LJdOrGH9w", "name": "Sleep Telemedicine Services", "address": "8975 South Pecos, Ste 6-C", "city": "Henderson", "state": "NV", "postal_code": "89074", "latitude": 36.0263477, "longitude": -115.1022917, "stars": 4.0, "review_count": 4, "is_open": 1, "categories": "Health & Medical, Diagnostic Services, Sleep Specialists"}
{"business_id": "kQknjbOvtPmS3NVm-RhcdQ", "name": "Hotel Charlotte Restaurant", "address": "705 S Sharon Amity Rd", "city": "Charlotte", "state": "NC", "postal_code": "28211", "latitude": 35.171415, "longitude": -80.806797, "stars": 4.0, "review_count": 8, "is_open": 0, "categories": "Restaurants, Cajun/Creole"}
{"business_id": "26hQy2RMyhYxjzmlE_dNeQ", "name": "Hand & Stone Massage and Facial Spa", "address": "2925 S Alma School Rd, Ste 6", "city": "Chandler", "state": "AZ", "postal_code": "85286", "latitude": 33.2635543, "longitude": -111.8574641, "stars": 4.0, "review_count": 27, "is_open": 1, "categories": "Beauty & Spas, Day Spas, Hair Removal, Massage, Massage Therapy, Skin Care, Health & Medical"}
{"business_id": "W-x-vxx1ebJ9NBcP8h_98A", "name": "Ulta Beauty", "address": "7844 Rea Rd", "city": "Charlotte", "state": "NC", "postal_code": "28277", "latitude": 35.0604382, "longitude": -80.8169734, "stars": 2.5, "review_count": 57, "is_open": 1, "categories": "Shopping, Cosmetics & Beauty Supply, Beauty & Spas, Makeup Artists, Hair Removal, Hair Salons, Skin Care"}
{"business_id": "OMmLHwus6JG3kPRBOre2eg", "name": "Jesus Church", "address": "2929 W Greenway Rd", "city": "Phoenix", "state": "AZ", "postal_code": "85053", "latitude": 33.6248158, "longitude": -112.1221716, "stars": 4.5, "review_count": 3, "is_open": 1, "categories": "Churches, Religious Organizations"}
{"business_id": "0y6alZmSLnPzmG5_kP5Quw", "name": "J J's Pizza", "address": "20542 Lorain Rd", "city": "Fairview Park", "state": "OH", "postal_code": "44126", "latitude": 41.4483412, "longitude": -81.847644, "stars": 4.5, "review_count": 21, "is_open": 1, "categories": "Pizza, Italian, Restaurants"}
{"business_id": "3YjPlOX3VHzKguHetiR_3g", "name": "Denny's Restaurant", "address": "10340 N Scottsdale Rd", "city": "Paradise Valley", "state": "AZ", "postal_code": "85253", "latitude": 33.5794609, "longitude": -111.9261458, "stars": 3.0, "review_count": 5, "is_open": 0, "categories": "American (Traditional), Restaurants"}
{"business_id": "OUBuRQi7Doshp4bUzqAz2w", "name": "Rinse n Ride Car Wash", "address": "3676 S Val Vista Dr", "city": "Gilbert", "state": "AZ", "postal_code": "85297", "latitude": 33.2835012, "longitude": -111.7558188, "stars": 3.5, "review_count": 63, "is_open": 1, "categories": "Automotive, Car Wash"}
{"business_id": "OGVHlFHSXjHuioOvm1wVqg", "name": "The Jackman Bar & Restaurant", "address": "918 Jackman Ave", "city": "Avalon", "state": "PA", "postal_code": "15202", "latitude": 40.4963807, "longitude": -80.065479, "stars": 4.0, "review_count": 13, "is_open": 1, "categories": "Dive Bars, Restaurants, Comfort Food, Bars, Nightlife"}
{"business_id": "Q_dh08clYUPj13GmCRzIVA", "name": "Kulinarya Express Filipino Kitchen", "address": "7960 S Rainbow Blvd, Ste 8000A", "city": "Las Vegas", "state": "NV", "postal_code": "89139", "latitude": 36.0436627223, "longitude": -115.2418808932, "stars": 4.0, "review_count": 82, "is_open": 0, "categories": "Filipino, Restaurants, Breakfast & Brunch, Food, Street Vendors"}
{"business_id": "2VjmEl3h0l0x9Ho5epE-Ug", "name": "Ahwatukee Pediatrics, PC", "address": "15715 S 46th St, Ste 102", "city": "Phoenix", "state": "AZ", "postal_code": "85048", "latitude": 33.301519, "longitude": -111.984584, "stars": 3.5, "review_count": 11, "is_open": 1, "categories": "Pediatricians, Doctors, Health & Medical"}
{"business_id": "34FYKG4pHNXbM9ZRRiJaGw", "name": "Tim Hortons", "address": "939 Eglinton Avenue E", "city": "East York", "state": "ON", "postal_code": "M4G 4E8", "latitude": 43.713462541, "longitude": -79.360165832, "stars": 1.5, "review_count": 3, "is_open": 1, "categories": "Cafes, Donuts, Food, Coffee & Tea, Restaurants"}
{"business_id": "zSzk_YkSKD8NTIVem_se8w", "name": "KT Keep In Touch Nails and Spa", "address": "1712 E Guadalupe Rd, Ste 104", "city": "Tempe", "state": "AZ", "postal_code": "85283", "latitude": 33.3644482, "longitude": -111.9131709, "stars": 4.0, "review_count": 58, "is_open": 1, "categories": "Beauty & Spas, Nail Salons"}
{"business_id": "h8WA6f0XUFQ2AsGvFNzTgw", "name": "Amega Shooting Supplies", "address": "3170 W Carefree Hwy", "city": "Phoenix", "state": "AZ", "postal_code": "85086", "latitude": 33.8001904414, "longitude": -112.1289002895, "stars": 4.0, "review_count": 9, "is_open": 0, "categories": "Local Services, Shopping, Guns & Ammo, Active Life"}
{"business_id": "ZjFd2WHdCUQ3ehoPnRrEcw", "name": "Leslie's Pool Supplies, Service & Repair", "address": "10390 N 90th St", "city": "Scottsdale", "state": "AZ", "postal_code": "85258", "latitude": 33.5801522, "longitude": -111.8893233, "stars": 2.5, "review_count": 11, "is_open": 1, "categories": "Hot Tub & Pool, Shopping, Home & Garden, Home Services, Pool & Hot Tub Service"}
{"business_id": "3C0bnFhjkgYP9mWORKg6cA", "name": "Chili Man", "address": "S Tryon", "city": "Charlotte", "state": "NC", "postal_code": "28202", "latitude": 35.226911, "longitude": -80.843823, "stars": 5.0, "review_count": 172, "is_open": 1, "categories": "Hot Dogs, Food, Street Vendors, Restaurants"}
{"business_id": "t749-3jKKDyO8QH3VezUHA", "name": "Chao Phraya", "address": "50 Avenue Laurier O", "city": "Montr\u00e9al", "state": "QC", "postal_code": "H2T 2N4", "latitude": 45.5223759924, "longitude": -73.593122527, "stars": 3.5, "review_count": 48, "is_open": 0, "categories": "Thai, Restaurants"}
{"business_id": "TN4rJ96kZ99k_zSI2yuPbA", "name": "Fromagerie Des Nations", "address": "7500 Les Galeries D'anjou Boul", "city": "Anjou", "state": "QC", "postal_code": "H1M 3M4", "latitude": 45.5976071, "longitude": -73.5678316, "stars": 4.5, "review_count": 3, "is_open": 1, "categories": "Specialty Food, Restaurants, Food, Delis, Sandwiches, Cheese Shops"}
{"business_id": "PqGYodFN9vKU2v0HUMtCuA", "name": "Fresh Coat Painters of Charlotte", "address": "9635 Southern Pine Blvd, Ste 108", "city": "Charlotte", "state": "NC", "postal_code": "28273", "latitude": 35.1324187, "longitude": -80.9136015, "stars": 5.0, "review_count": 6, "is_open": 1, "categories": "Drywall Installation & Repair, Painters, Home Services"}
{"business_id": "ydE2SjvSd9_NMoEBAE2PuA", "name": "Chili's Grill & Bar", "address": "801 S Mill Ave", "city": "Tempe", "state": "AZ", "postal_code": "85281", "latitude": 33.4217581, "longitude": -111.9397605, "stars": 3.5, "review_count": 51, "is_open": 0, "categories": "American (Traditional), Restaurants, Tex-Mex"}
{"business_id": "2W1tLg8ybRUEKMPoAPHTsQ", "name": "Cox Media", "address": "6725 Via Austi Pkwy, Ste 100", "city": "Las Vegas", "state": "NV", "postal_code": "89119", "latitude": 36.0672701, "longitude": -115.1628395, "stars": 1.0, "review_count": 3, "is_open": 1, "categories": null}
{"business_id": "HZ2Kn4iKeKZXjLQSFfAatw", "name": "Hot Tub Liquidators", "address": "129 N Gibson Rd", "city": "Henderson", "state": "NV", "postal_code": "89014", "latitude": 36.036703, "longitude": -115.029929, "stars": 4.5, "review_count": 69, "is_open": 1, "categories": "Home & Garden, Shopping, Hot Tub & Pool"}
{"business_id": "y1SMc0Z4eRDghTe4imBLHA", "name": "Sharon M Tuttle Photography", "address": "", "city": "Chandler", "state": "AZ", "postal_code": "85249", "latitude": 33.2236687, "longitude": -111.8210866, "stars": 5.0, "review_count": 3, "is_open": 1, "categories": "Session Photography, Event Photography, Photographers, Event Planning & Services"}
{"business_id": "mZqbWS6B0eV30efxsVbqPQ", "name": "Fleurish Flower Shop", "address": "6449 Crowchild Trail SW", "city": "Calgary", "state": "AB", "postal_code": "T3E 5R7", "latitude": 50.9968513099, "longitude": -114.1194644246, "stars": 4.5, "review_count": 3, "is_open": 1, "categories": "Flowers & Gifts, Shopping, Florists"}
{"business_id": "upSPwM6Fr6RHAhwagnleow", "name": "Manantial De Salud", "address": "4254 E Charleston Blvd", "city": "Las Vegas", "state": "NV", "postal_code": "89104", "latitude": 36.1592206, "longitude": -115.0826068, "stars": 5.0, "review_count": 3, "is_open": 1, "categories": "Specialty Food, Health Markets, Food, Shopping, Doctors, Vitamins & Supplements, Naturopathic/Holistic, Saunas, Alternative Medicine, Health & Medical"}
{"business_id": "xSveVu4UWuyayq8HFlf9KA", "name": "Toronto Dermatology Centre", "address": "4256 Bathurst Street, Suite 400", "city": "Toronto", "state": "ON", "postal_code": "M3H 3P7", "latitude": 43.751152, "longitude": -79.4378043, "stars": 2.5, "review_count": 21, "is_open": 1, "categories": "Dermatologists, Doctors, Health & Medical"}
{"business_id": "Qu5PtrxKZf8XCCksyx8Alg", "name": "Chandler Symphony Orchestra", "address": "", "city": "Chandler", "state": "AZ", "postal_code": "85224", "latitude": 33.3260297, "longitude": -111.8747445, "stars": 5.0, "review_count": 4, "is_open": 1, "categories": "Arts & Entertainment, Performing Arts"}
{"business_id": "I-nXCBw2-FyX7kx2SWo_-g", "name": "H\u00e9ritage Victorien", "address": "305 Rue Ontario", "city": "Montr\u00e9al", "state": "QC", "postal_code": "H2X 1H6", "latitude": 45.51495, "longitude": -73.5657085, "stars": 4.5, "review_count": 4, "is_open": 1, "categories": "Bed & Breakfast, Hotels & Travel"}
{"business_id": "0DnQh8SE8BSnvJltGCCiWg", "name": "Chick-N-Joy", "address": "3-1265 York Mills Road", "city": "Toronto", "state": "ON", "postal_code": "M3A 1Z3", "latitude": 43.765279, "longitude": -79.326248, "stars": 3.0, "review_count": 11, "is_open": 1, "categories": "Fast Food, Restaurants, Chicken Shop"}
{"business_id": "NLaK58WvlNQdUunSIkt-jA", "name": "Zav Coffee Shop & Gallery", "address": "2048 Danforth Avenue", "city": "Toronto", "state": "ON", "postal_code": "M4C 1J6", "latitude": 43.6856078, "longitude": -79.3139362, "stars": 4.5, "review_count": 24, "is_open": 1, "categories": "Coffee & Tea, Restaurants, Sandwiches, Food"}
{"business_id": "5X7TQsA3iDbBc8yy2YkCnA", "name": "Blimpie", "address": "9120 E Talking Stick Way, Ste E5", "city": "Scottsdale", "state": "AZ", "postal_code": "85250", "latitude": 33.5404512, "longitude": -111.8852293, "stars": 4.5, "review_count": 35, "is_open": 1, "categories": "Restaurants, Sandwiches, Fast Food"}
{"business_id": "Ag-H9FFlgJtyyy-P1Hn22A", "name": "Pier 1", "address": "4729 South Blvd", "city": "Charlotte", "state": "NC", "postal_code": "28217", "latitude": 35.175044856, "longitude": -80.8750508, "stars": 4.0, "review_count": 9, "is_open": 1, "categories": "Home & Garden, Shopping, Furniture Stores, Candle Stores, Home Decor"}
{"business_id": "KPqcax8EHZiPyJ0ZzfaOjg", "name": "Frederick & Sons", "address": "3350 N Arizona Ave", "city": "Chandler", "state": "AZ", "postal_code": "85225", "latitude": 33.306108, "longitude": -111.841475, "stars": 4.5, "review_count": 21, "is_open": 1, "categories": "Water Heater Installation/Repair, Heating & Air Conditioning/HVAC, Home Services, Plumbing"}
{"business_id": "OIKp-6ObAd-yW-32U3c22Q", "name": "Wine Rack", "address": "570 Bloor Street W", "city": "Toronto", "state": "ON", "postal_code": "M6G 1K1", "latitude": 43.664926858, "longitude": -79.4115530642, "stars": 4.0, "review_count": 9, "is_open": 0, "categories": "Food, Beer, Wine & Spirits"}
{"business_id": "e1tqT4QNOUqDiOvmaIcxfQ", "name": "Chef Alyssa's Kitchen", "address": "4001-C Yancey Rd, Ste 100", "city": "Charlotte", "state": "NC", "postal_code": "28217", "latitude": 35.186099, "longitude": -80.878288, "stars": 4.5, "review_count": 58, "is_open": 1, "categories": "Active Life, Summer Camps, Personal Chefs, Venues & Event Spaces, Cooking Schools, Event Planning & Services, Shopping, Specialty Schools, Cooking Classes, Restaurants, Party & Event Planning, Education, Caterers, Breakfast & Brunch, Arts & Crafts"}
{"business_id": "VBVqHnViRLSYAqP7v8iNNQ", "name": "Jalape\u00f1o Inferno", "address": "20825 N Pima Rd", "city": "Scottsdale", "state": "AZ", "postal_code": "85255", "latitude": 33.67488, "longitude": -111.888635, "stars": 3.5, "review_count": 247, "is_open": 1, "categories": "Mexican, Restaurants, Food, Salad, Desserts"}
{"business_id": "Yr_w9lakJrKMyEG_hI6zbA", "name": "Fat Moe's Pizza & Wings", "address": "6125 W Tropicana Ave, Ste F", "city": "Las Vegas", "state": "NV", "postal_code": "89103", "latitude": 36.0993613, "longitude": -115.2266356, "stars": 4.0, "review_count": 141, "is_open": 1, "categories": "Pizza, Salad, Burgers, Restaurants"}
{"business_id": "utjb7V7VK5QNdHjMP7H1kw", "name": "Shear Sensations Hair and Body Care Salon", "address": "1801 Chislett St", "city": "Pittsburgh", "state": "PA", "postal_code": "15206", "latitude": 40.4856186, "longitude": -79.9259221, "stars": 5.0, "review_count": 6, "is_open": 1, "categories": "Hair Removal, Skin Care, Waxing, Hair Salons, Beauty & Spas"}
{"business_id": "yJy0EFyCBKwVF8Wiwh-dpQ", "name": "Moving Forward", "address": "", "city": "Cottage Grove", "state": "WI", "postal_code": "53527", "latitude": 43.0761082, "longitude": -89.1995593, "stars": 5.0, "review_count": 3, "is_open": 1, "categories": "Home Services, Movers, Professional Services, Local Services"}
{"business_id": "F7E3qP0oz_SuVGZGL0D8Zw", "name": "Ristorante Italiano", "address": "2901 Las Vegas Blvd S", "city": "Las Vegas", "state": "NV", "postal_code": "89109", "latitude": 36.135385, "longitude": -115.159235, "stars": 3.0, "review_count": 3, "is_open": 0, "categories": "Italian, Restaurants"}
{"business_id": "cicPsia8Wj-DNRkmLbD_xg", "name": "The Keg Steakhouse + Bar", "address": "2201 Yonge Street", "city": "Toronto", "state": "ON", "postal_code": "M4S 2B2", "latitude": 43.7058425, "longitude": -79.3978408, "stars": 3.5, "review_count": 91, "is_open": 1, "categories": "Steakhouses, Restaurants, Nightlife, Seafood, Bars"}
{"business_id": "tWAlwjRV195TX2X0Ihzciw", "name": "The Thing Shop", "address": "4147 W Venus Way", "city": "Chandler", "state": "AZ", "postal_code": "85226", "latitude": 33.3025013, "longitude": -111.9147546, "stars": 4.0, "review_count": 8, "is_open": 1, "categories": "Automotive, Auto Parts & Supplies"}
{"business_id": "w6_VH0-1P_gpftNQcDXoVw", "name": "Saigon West Noodle house", "address": "1619 46 Street NW", "city": "Calgary", "state": "AB", "postal_code": "T3B 1A8", "latitude": 51.0715185, "longitude": -114.1635349, "stars": 4.5, "review_count": 3, "is_open": 0, "categories": "Restaurants, Vietnamese"}
{"business_id": "eDuULyzAzjlii1kJGyve9w", "name": "Daisy Nails", "address": "5990 Av 16th", "city": "Markham", "state": "ON", "postal_code": "L3P 7R2", "latitude": 43.8920358, "longitude": -79.26543, "stars": 2.5, "review_count": 9, "is_open": 1, "categories": "Nail Salons, Beauty & Spas"}
{"business_id": "-1MVd6ljY2JT6gCKnrc-uw", "name": "U-Haul Neighborhood Dealer", "address": "1650 Crestdale Ln", "city": "Las Vegas", "state": "NV", "postal_code": "89144", "latitude": 36.1904825, "longitude": -115.3166747, "stars": 3.0, "review_count": 12, "is_open": 1, "categories": "Self Storage, Home Services, Packing Supplies, Movers, Truck Rental, Local Services, Automotive, Shopping"}
{"business_id": "Gg1qq7Xx2ZdvwCdG-lFKiQ", "name": "Desert Nail Spa", "address": "777 E Thunderbird Rd", "city": "Phoenix", "state": "AZ", "postal_code": "85022", "latitude": 33.607082, "longitude": -112.063426, "stars": 3.5, "review_count": 42, "is_open": 1, "categories": "Beauty & Spas, Nail Salons"}
{"business_id": "2aWV8Rx4TwtB0x2pfIPNxA", "name": "Restaurant Houston Steaks et Cotes Levees", "address": "Aeroport Trudeau Montreal, US Departures Side", "city": "Dorval", "state": "QC", "postal_code": "", "latitude": 45.4560993506, "longitude": -73.7531246953, "stars": 2.0, "review_count": 106, "is_open": 1, "categories": "Restaurants, Steakhouses"}
{"business_id": "MPly2nhjIjF5ZRevu97qqA", "name": "Target", "address": "550 Grandview Crossing Dr", "city": "Gibsonia", "state": "PA", "postal_code": "15044", "latitude": 40.642338, "longitude": -79.941315, "stars": 2.5, "review_count": 5, "is_open": 1, "categories": "Department Stores, Fashion, Shopping, Drugstores, Home & Garden, Electronics, Furniture Stores"}
{"business_id": "0nqQIM2PvOcTX6v0L537_Q", "name": "Fearless Meat", "address": "884 Kingston Road", "city": "Toronto", "state": "ON", "postal_code": "M4E 1S3", "latitude": 43.6804133, "longitude": -79.2902794, "stars": 4.0, "review_count": 17, "is_open": 1, "categories": "Fast Food, Burgers, Sandwiches, Restaurants"}
{"business_id": "3UdIrlCtMyUO0SdGqS3Y1w", "name": "Global Pet Foods", "address": "5892 Main Street, Unit 304", "city": "Stouffville", "state": "ON", "postal_code": "L4A 2S8", "latitude": 43.968004, "longitude": -79.262481, "stars": 4.0, "review_count": 4, "is_open": 1, "categories": "Pet Stores, Pets"}
{"business_id": "P40C2j6v-p2qrHxdpmqn7w", "name": "Mississauga Family Fitness", "address": "3100 Dixie Road", "city": "Mississauga", "state": "ON", "postal_code": "L4Y 2A6", "latitude": 43.6100994, "longitude": -79.5870626, "stars": 1.0, "review_count": 3, "is_open": 0, "categories": "Fitness & Instruction, Gyms, Active Life"}
{"business_id": "d4EDoV-VQp4Q-qPMr3Bbfg", "name": "Anna & Qobolla Couture Bridal Seamstresses", "address": "90 Porchlight Road", "city": "Brampton", "state": "ON", "postal_code": "L6X 4R9", "latitude": 43.6865398462, "longitude": -79.7898311186, "stars": 5.0, "review_count": 3, "is_open": 1, "categories": "Sewing & Alterations, Local Services, Bridal, Shopping"}
{"business_id": "rzd_2GJpkvHPejEwJ-IKHg", "name": "Somer's Restaurant", "address": "4197 W 150th St", "city": "Cleveland", "state": "OH", "postal_code": "44135", "latitude": 41.4402655, "longitude": -81.8002948, "stars": 3.5, "review_count": 32, "is_open": 0, "categories": "Diners, American (Traditional), Restaurants"}
{"business_id": "tdtU7pk3swBuGYBQgyLgTw", "name": "LCBO", "address": "549 Collage Street", "city": "Toronto", "state": "ON", "postal_code": "M6G 1A5", "latitude": 43.655927596, "longitude": -79.4095277041, "stars": 4.0, "review_count": 7, "is_open": 1, "categories": "Beer, Wine & Spirits, Food"}
{"business_id": "ymVE6ZlBgthnHBLpYBw2JQ", "name": "Spa Lamar", "address": "5115 N Scottsdale Rd, Ste 101", "city": "Scottsdale", "state": "AZ", "postal_code": "85250", "latitude": 33.5125924, "longitude": -111.9255132, "stars": 4.0, "review_count": 185, "is_open": 1, "categories": "Event Planning & Services, Massage, Venues & Event Spaces, Day Spas, Skin Care, Hair Stylists, Beauty & Spas, Hair Salons, Home Services, Wedding Planning, Contractors"}
{"business_id": "PlP0c_u3g-3LiWHpb2XnOQ", "name": "Lee Cafe", "address": "1046 Regent Pkwy, Ste 107", "city": "Fort Mill", "state": "SC", "postal_code": "29715", "latitude": 35.0754755316, "longitude": -80.9339044464, "stars": 4.0, "review_count": 267, "is_open": 1, "categories": "Restaurants, Sushi Bars, Chinese"}
{"business_id": "CV6edrz2Lv_kwyAGdswS2A", "name": "Fitness Nation", "address": "991 Matheson Boulevard E, Unit 11", "city": "Mississauga", "state": "ON", "postal_code": "L4W 2V3", "latitude": 43.6323819, "longitude": -79.6411753, "stars": 4.5, "review_count": 3, "is_open": 1, "categories": "Active Life, Boxing, Gyms, Fitness & Instruction, Trainers"}
{"business_id": "c5LZnVzx5XmMUKdkf_Xtdg", "name": "Nadia's Beauty Salon", "address": "1000 N Nellis Blvd", "city": "Las Vegas", "state": "NV", "postal_code": "89110", "latitude": 36.1782806, "longitude": -115.0615657, "stars": 4.0, "review_count": 5, "is_open": 1, "categories": "Beauty & Spas, Hair Salons"}
{"business_id": "HPLTAEL08KAou9tZ0Yuo9g", "name": "Cin\u00e9ma Guzzo -  Mega-Plex Lacordaire 16", "address": "5940 Boulevard des Grandes Prairies", "city": "Saint-Leonard", "state": "QC", "postal_code": "H1P 1A4", "latitude": 45.600225, "longitude": -73.609697, "stars": 2.0, "review_count": 4, "is_open": 1, "categories": "Cinema, Arts & Entertainment"}
{"business_id": "TvuwCoKIttCtx6kGYziziQ", "name": "Pioneer Community Park", "address": "8755 N 83rd Ave", "city": "Peoria", "state": "AZ", "postal_code": "85345", "latitude": 33.5616785536, "longitude": -112.235669978, "stars": 4.5, "review_count": 55, "is_open": 1, "categories": "Active Life, Parks, Dog Parks, Fishing"}
{"business_id": "ukrqHrHtptmUodckPVVu3g", "name": "Northwest Pool and Spa", "address": "12035 N 59th Ave", "city": "Glendale", "state": "AZ", "postal_code": "85304", "latitude": 33.5955853, "longitude": -112.1855426, "stars": 5.0, "review_count": 22, "is_open": 1, "categories": "Shopping, Hot Tub & Pool, Home & Garden, Active Life, Home Services, Swimming Pools, Pool Cleaners"}
{"business_id": "ZEEC2iUgHS1d-Sev9Kl51w", "name": "Cruffs Cream Puffs", "address": "2312A-4th Street SW", "city": "Calgary", "state": "AB", "postal_code": "T2S 1X2", "latitude": 51.0316155, "longitude": -114.0714924, "stars": 4.5, "review_count": 17, "is_open": 0, "categories": "Bakeries, Desserts, Food"}
{"business_id": "h1SWjGh9ewGN2Jv4RqJNDw", "name": "Ali Lopez - Wardley Real Estate", "address": "777 N Rainbow, Ste 120", "city": "Las Vegas", "state": "NV", "postal_code": "89074", "latitude": 36.180082, "longitude": -115.243102, "stars": 5.0, "review_count": 3, "is_open": 1, "categories": "Home Services, Real Estate, Real Estate Agents, Real Estate Services"}
{"business_id": "FNtrxYca1pRcPJ80ZPQu_w", "name": "Allstate Insurance: Oscar Arnold", "address": "15605 W Roosevelt St, Ste 103", "city": "Goodyear", "state": "AZ", "postal_code": "85338", "latitude": 33.4564081299, "longitude": -112.3942369223, "stars": 5.0, "review_count": 6, "is_open": 1, "categories": "Financial Services, Home & Rental Insurance, Home Services, Real Estate, Auto Insurance, Life Insurance, Automotive, Insurance, Real Estate Services"}
{"business_id": "ou3C2Cnot1gitNoQIu5Uag", "name": "Walgreens", "address": "3700 University Ave", "city": "Madison", "state": "WI", "postal_code": "53705", "latitude": 43.0759102, "longitude": -89.4505063, "stars": 2.5, "review_count": 15, "is_open": 1, "categories": "Cosmetics & Beauty Supply, Beauty & Spas, Convenience Stores, Photography Stores & Services, Food, Drugstores, Shopping"}
{"business_id": "7p8-7fjCmZfNwMdSTmH9aQ", "name": "Courtyard by Marriott Centre-Ville", "address": "380 Boulevard Ren\u00e9-L\u00e9vesque O", "city": "Montr\u00e9al", "state": "QC", "postal_code": "H2Z 0A6", "latitude": 45.5052688408, "longitude": -73.5641983151, "stars": 3.5, "review_count": 45, "is_open": 1, "categories": "Hotels & Travel, Event Planning & Services, Hotels"}
{"business_id": "AbQ5w5RWojGGblGRkdOxtw", "name": "Pure Life Chiropractic", "address": "9180 Talking Stick Way, Ste F-9", "city": "Scottsdale", "state": "AZ", "postal_code": "85250", "latitude": 33.5394338, "longitude": -111.8831652, "stars": 5.0, "review_count": 20, "is_open": 1, "categories": "Chiropractors, Health & Medical"}
{"business_id": "o9auqDMXSNvE_jNQby-1Og", "name": "Sushi Club K'z", "address": "1240 Kensington Road Nw", "city": "Calgary", "state": "AB", "postal_code": "T2N 3P7", "latitude": 51.0526208, "longitude": -114.0914398, "stars": 4.0, "review_count": 17, "is_open": 0, "categories": "Sushi Bars, Restaurants"}
{"business_id": "TyeLUMLGRcp3mtBlkS5jpA", "name": "50 Shades of Polish", "address": "24569 Center Ridge Rd", "city": "Westlake", "state": "OH", "postal_code": "44145", "latitude": 41.4574039, "longitude": -81.893156, "stars": 4.0, "review_count": 14, "is_open": 1, "categories": "Nail Salons, Beauty & Spas"}
{"business_id": "jjkpufrM_bH3NRgrX3LfUw", "name": "City of Angels", "address": "439 Queen Street W", "city": "Toronto", "state": "ON", "postal_code": "M5V 2A5", "latitude": 43.6486848, "longitude": -79.3959412, "stars": 3.5, "review_count": 3, "is_open": 1, "categories": "Fashion, Accessories, Women's Clothing, Shopping"}
{"business_id": "xVXyrTWbG8U3szze-aA7eg", "name": "St. Louis Bar & Grill", "address": "557 Dixon Road, Unit 130", "city": "Toronto", "state": "ON", "postal_code": "M9W 1H7", "latitude": 43.6901440838, "longitude": -79.571658481, "stars": 2.0, "review_count": 34, "is_open": 1, "categories": "Nightlife, Sports Bars, Bars, Restaurants, American (Traditional), Chicken Wings"}
{"business_id": "rBlOV-mLmOrIaa-C8XflNQ", "name": "RAV", "address": "6275 Harrison Dr", "city": "Las Vegas", "state": "NV", "postal_code": "89120", "latitude": 36.0759715, "longitude": -115.1131789, "stars": 4.0, "review_count": 5, "is_open": 1, "categories": "Auto Repair, Automotive"}
{"business_id": "90oH6tilpqsCkz7Dhcxejw", "name": "Massage In Davidson", "address": "21206 Catawba Ave", "city": "Cornelius", "state": "NC", "postal_code": "28031", "latitude": 35.4824259, "longitude": -80.862377, "stars": 5.0, "review_count": 16, "is_open": 1, "categories": "Massage Therapy, Health & Medical, Beauty & Spas, Massage"}
{"business_id": "e-tRKAC-q40SqQfAOwYa-A", "name": "Aum Ayurvedic & Thai Massage", "address": "538 College Street", "city": "Toronto", "state": "ON", "postal_code": "M6G 1A6", "latitude": 43.6560081, "longitude": -79.4112052, "stars": 3.0, "review_count": 12, "is_open": 1, "categories": "Reflexology, Massage Therapy, Massage, Beauty & Spas, Health & Medical"}
{"business_id": "YHWjW9GLcuNtnh_xdCSOeA", "name": "Pizza Fresh", "address": "1940 S Val Vista Dr", "city": "Mesa", "state": "AZ", "postal_code": "85204", "latitude": 33.3794143, "longitude": -111.7541038, "stars": 4.5, "review_count": 3, "is_open": 0, "categories": "Pizza, Restaurants"}
{"business_id": "m4PkM_cl_yG9ag4exOjg_Q", "name": "Style 5", "address": "3415 W Craig Rd", "city": "North Las Vegas", "state": "NV", "postal_code": "89032", "latitude": 36.2389544, "longitude": -115.1863541, "stars": 4.5, "review_count": 42, "is_open": 1, "categories": "Hair Salons, Men's Hair Salons, Beauty & Spas, Hair Stylists"}
{"business_id": "8k8cMmMcuj5h85mMLMoj2w", "name": "RayNathan's", "address": "4571 S New Hope Rd", "city": "Gastonia", "state": "NC", "postal_code": "28056", "latitude": 35.2078005, "longitude": -81.0747608, "stars": 4.0, "review_count": 58, "is_open": 1, "categories": "Barbeque, Southern, Restaurants, American (Traditional)"}
{"business_id": "YoyD3B4B0cGVha9LYfUO5Q", "name": "Doc Request", "address": "8872 S Eastern Ave, Ste 280", "city": "Las Vegas", "state": "NV", "postal_code": "89123", "latitude": 36.027942, "longitude": -115.115878, "stars": 3.0, "review_count": 4, "is_open": 1, "categories": "Professional Services, Lawyers, Printing Services, Local Services"}
{"business_id": "ddoZR1DQyvKs-dchZRGiTg", "name": "Urban Optique & Eye Care", "address": "4960 S Gilbert Rd, Ste 11", "city": "Chandler", "state": "AZ", "postal_code": "85249", "latitude": 33.2351666, "longitude": -111.7917716, "stars": 3.5, "review_count": 8, "is_open": 1, "categories": "Optometrists, Health & Medical, Eyewear & Opticians, Shopping"}